{"type": "FeatureCollection", "features": [{"type": "Feature", "properties": {"title": "Allegheny County, Pennsylvania", "id": 88916}, "geometry": {"type": "Point", "coordinates": [-79.98, 40.47]}}, {"type": "Feature", "properties": {"title": "Allegheny River", "id": 51822}, "geometry": {"type": "Point", "coordinates": [-80.0150536, 40.4434025]}}, {"type": "Feature", "properties": {"title": "Beaver County, Pennsylvania", "id": 91984}, "geometry": {"type": "Point", "coordinates": [-80.35, 40.69]}}, {"type": "Feature", "properties": {"title": "Bethel Park, Pennsylvania", "id": 131079}, "geometry": {"type": "Point", "coordinates": [-80.03944444, 40.3275]}}, {"type": "Feature", "properties": {"title": "Butler, Pennsylvania", "id": 131577}, "geometry": {"type": "Point", "coordinates": [-79.89472222, 40.86055556]}}, {"type": "Feature", "properties": {"title": "Carnegie Mellon University", "id": 48093}, "geometry": {"type": "Point", "coordinates": [-79.943583, 40.443322]}}, {"type": "Feature", "properties": {"title": "Civic Arena (Pittsburgh)", "id": 753917}, "geometry": {"type": "Point", "coordinates": [-79.99, 40.44166667]}}, {"type": "Feature", "properties": {"title": "Cranberry Township, Butler County, Pennsylvania", "id": 131590}, "geometry": {"type": "Point", "coordinates": [-80.1, 40.7]}}, {"type": "Feature", "properties": {"title": "Duquesne University", "id": 582163}, "geometry": {"type": "Point", "coordinates": [-79.99305556, 40.43611111]}}, {"type": "Feature", "properties": {"title": "Forbes Field", "id": 632720}, "geometry": {"type": "Point", "coordinates": [-79.95416667, 40.44194444]}}, {"type": "Feature", "properties": {"title": "Greater Pittsburgh Region", "id": 3183252}, "geometry": {"type": "Point", "coordinates": [-79.984, 40.421]}}, {"type": "Feature", "properties": {"title": "Greensburg, Pennsylvania", "id": 134144}, "geometry": {"type": "Point", "coordinates": [-79.54222222, 40.29777778]}}, {"type": "Feature", "properties": {"title": "Heinz", "id": 13881}, "geometry": {"type": "Point", "coordinates": [-79.9909, 40.4545]}}, {"type": "Feature", "properties": {"title": "Heinz Field", "id": 626713}, "geometry": {"type": "Point", "coordinates": [-80.01583333, 40.44666667]}}, {"type": "Feature", "properties": {"title": "Hempfield Township, Westmoreland County, Pennsylvania", "id": 134146}, "geometry": {"type": "Point", "coordinates": [-79.49138889, 40.33333333]}}, {"type": "Feature", "properties": {"title": "KDKA-TV", "id": 1236491}, "geometry": {"type": "Point", "coordinates": [-80.01916667, 40.49388889]}}, {"type": "Feature", "properties": {"title": "Latrobe, Pennsylvania", "id": 81686}, "geometry": {"type": "Point", "coordinates": [-79.38111111, 40.315]}}, {"type": "Feature", "properties": {"title": "McCandless, Pennsylvania", "id": 258033}, "geometry": {"type": "Point", "coordinates": [-80.029292, 40.57651]}}, {"type": "Feature", "properties": {"title": "McKeesport, Pennsylvania", "id": 131136}, "geometry": {"type": "Point", "coordinates": [-79.84888889, 40.34388889]}}, {"type": "Feature", "properties": {"title": "Meadowcroft Rockshelter", "id": 4212686}, "geometry": {"type": "Point", "coordinates": [-80.49166667, 40.28638889]}}, {"type": "Feature", "properties": {"title": "Monongahela River", "id": 201862}, "geometry": {"type": "Point", "coordinates": [-80.01611111, 40.44166667]}}, {"type": "Feature", "properties": {"title": "Monroeville, Pennsylvania", "id": 131143}, "geometry": {"type": "Point", "coordinates": [-79.76527778, 40.43111111]}}, {"type": "Feature", "properties": {"title": "Moon Township, Allegheny County, Pennsylvania", "id": 131138}, "geometry": {"type": "Point", "coordinates": [-80.23333333, 40.51666667]}}, {"type": "Feature", "properties": {"title": "Mt. Lebanon, Pennsylvania", "id": 131140}, "geometry": {"type": "Point", "coordinates": [-80.05, 40.375]}}, {"type": "Feature", "properties": {"title": "North Huntingdon Township, Westmoreland County, Pennsylvania", "id": 134170}, "geometry": {"type": "Point", "coordinates": [-79.74138889, 40.38333333]}}, {"type": "Feature", "properties": {"title": "PNC Park", "id": 737748}, "geometry": {"type": "Point", "coordinates": [-80.00583333, 40.44694444]}}, {"type": "Feature", "properties": {"title": "PPG Paints Arena", "id": 10039332}, "geometry": {"type": "Point", "coordinates": [-79.98916667, 40.43944444]}}, {"type": "Feature", "properties": {"title": "Penn Hills Township, Allegheny County, Pennsylvania", "id": 131154}, "geometry": {"type": "Point", "coordinates": [-79.83333333, 40.47611111]}}, {"type": "Feature", "properties": {"title": "Pitt Stadium", "id": 759473}, "geometry": {"type": "Point", "coordinates": [-79.962, 40.444]}}, {"type": "Feature", "properties": {"title": "Pittsburgh", "id": 25101}, "geometry": {"type": "Point", "coordinates": [-79.97638889, 40.43972222]}}, {"type": "Feature", "properties": {"title": "Pittsburgh International Airport", "id": 262525}, "geometry": {"type": "Point", "coordinates": [-80.246, 40.496]}}, {"type": "Feature", "properties": {"title": "Pittsburgh synagogue shooting", "id": 58893695}, "geometry": {"type": "Point", "coordinates": [-79.92138889, 40.44361111]}}, {"type": "Feature", "properties": {"title": "Ross Township, Allegheny County, Pennsylvania", "id": 258037}, "geometry": {"type": "Point", "coordinates": [-80.02194444, 40.52638889]}}, {"type": "Feature", "properties": {"title": "Shaler Township, Allegheny County, Pennsylvania", "id": 258039}, "geometry": {"type": "Point", "coordinates": [-79.96361111, 40.52083333]}}, {"type": "Feature", "properties": {"title": "Three Rivers Stadium", "id": 737740}, "geometry": {"type": "Point", "coordinates": [-80.01277778, 40.44666667]}}, {"type": "Feature", "properties": {"title": "University of Pittsburgh", "id": 239870}, "geometry": {"type": "Point", "coordinates": [-79.953274, 40.444565]}}, {"type": "Feature", "properties": {"title": "Washington, Pennsylvania", "id": 134086}, "geometry": {"type": "Point", "coordinates": [-80.25055556, 40.175]}}, {"type": "Feature", "properties": {"title": "Washington & Jefferson College", "id": 745135}, "geometry": {"type": "Point", "coordinates": [-80.2393, 40.1714]}}, {"type": "Feature", "properties": {"title": "Washington County, Pennsylvania", "id": 91922}, "geometry": {"type": "Point", "coordinates": [-80.25, 40.19]}}, {"type": "Feature", "properties": {"title": "Westmoreland County, Pennsylvania", "id": 91919}, "geometry": {"type": "Point", "coordinates": [-79.47, 40.31]}}]}